[{"phone":"02-28087080","website":"https：\/\/www.facebook.com\/TreemanCoffee?fref=ts","zone":"淡水","time":"9：00~21：30(周三公休)","address":"新北市淡水區民生路52巷8號","title":"樹男咖啡館","lon":"121.462°","lat":"25.1376°"},{"phone":"02-26252459","website":"https：\/\/www.facebook.com\/youhebook?ref=ts&fref=ts","zone":"淡水","time":"12：00~22：00(周一公休)","address":"新北市淡水區中正路5巷26號2樓","title":"有河book","lon":"121.442°","lat":"25.169°"},{"phone":"02-28915990","website":"https：\/\/www.facebook.com\/pages\/%E7%88%90%E9%8D%8B%E5%92%96%E5%95%A1LuguoCafe\/156695561063668?fref=ts","zone":"淡水","time":"15：30~22：00","address":"台北市北投區大度路三段296巷39號","title":"爐鍋咖啡關渡總店","lon":"121.467°","lat":"25.1243°"},{"phone":"02-28082087","website":"","zone":"淡水","time":"06：00~14：00","address":"新北市淡水區民族路16號","title":"雅加達","lon":"121.461°","lat":"25.1366°"},{"phone":"02-2834-2740","website":"http：\/\/www.changeeinfo.com\/","zone":"淡水","time":"週二至週五12am至6pm(週一公休)","address":"台北市福華路180號(台北數位藝術中心內一樓)近捷運芝山站2號出口","title":"Changee噪咖","lon":"121.522°","lat":"25.1059°"},{"phone":"02-26279912","website":"https：\/\/www.facebook.com\/ukulelefriendly?fref=ts","zone":"港湖","time":"禮拜一到五13：00_22：00禮拜六日13：00至20：00","address":"麗山街385巷4號（麗山國小後門）","title":"友善烏音樂空間UKULELEFRIENDLY","lon":"121.573°","lat":"25.0822°"},{"phone":"2782-7530","website":"https：\/\/www.facebook.com\/pages\/%E6%9B%B8%E8%88%87%E5%92%96%E5%95%A1\/226435114162830","zone":"港湖","time":"8：00至21：30(週一至週五)12：00至21：30(週日)","address":"台北市南港區研究院路二段7-8號","title":"書與咖啡","lon":"121.616°","lat":"25.0468°"},{"phone":"","website":"","zone":"港湖","time":"12：30–21：00(雙週星期三休)","address":"台北市內湖區安康路418號","title":"Tuttihome_自家烘焙咖啡","lon":"121.614°","lat":"25.0662°"},{"phone":"","website":"","zone":"港湖","time":"13：00–23：00(每週二公休)","address":"台北市內湖區康寧路一段76號","title":"布夏拉提咖啡","lon":"121.593°","lat":"25.0799°"},{"phone":"","website":"https：\/\/www.facebook.com\/pages\/%E9%99%BD%E5%85%89%E5%BB%9A%E5%9D%8A\/507185155985053","zone":"港湖","time":"週一至週六：9：30至21：00","address":"台北市內湖區江南街134號","title":"陽光廚坊","lon":"121.575°","lat":"25.0761°"},{"phone":"","website":"https：\/\/www.facebook.com\/LinCafe.Nangang","zone":"港湖","time":"Mon至Fri：7：00am至9：00、Sat至Sun：9：30am至9：00pm","address":"南港區南港路2段25號","title":"拎咖啡LinCafe","lon":"121.603°","lat":"25.0535°"},{"phone":"","website":"https：\/\/www.facebook.com\/CUCKOOSNESTCAFE","zone":"港湖","time":"Mon至Sun：1：30pm至12：30am","address":"台北市中山區北安路458巷41弄52號(捷運大直站3號出口)","title":"杜鵑窩","lon":"121.547°","lat":"25.079°"},{"phone":"","website":"","zone":"港湖","time":"每天","address":"民權東路6段453號","title":"陳嘉霖競選服務處","lon":"121.605°","lat":"25.072°"},{"phone":"","website":"","zone":"港湖","time":"10：00~22：00","address":"內湖區內湖路一段273號","title":"橘子工坊","lon":"121.566°","lat":"25.0825°"},{"phone":"","website":"https：\/\/www.facebook.com\/HMSorbet\/info","zone":"港湖","time":"依照網路公告","address":"台北市內湖區內湖路一段283-5號二樓百貨區113室(捷運西湖站)","title":"革合金迷你手縫皮革工廠","lon":"121.567°","lat":"25.0824°"},{"phone":"","website":"","zone":"港湖","time":"週一至週六：11：30至23：30、週日：11：30至22：30","address":"台北市內湖區康寧路三段165巷6號","title":"好了拉紅茶冰","lon":"121.612°","lat":"25.0707°"},{"phone":"","website":"","zone":"港湖","time":"6：00~13：00","address":"內湖區康樂街72巷17弄30號1樓","title":"麥味登早餐店","lon":"121.617°","lat":"25.0702°"},{"phone":"","website":"","zone":"港湖","time":"10：30~21：30","address":"康寧路3段50號","title":"美德家具行","lon":"121.609°","lat":"25.0718°"},{"phone":"","website":"","zone":"港湖","time":"週一至週四：11：30至0：00、週五至週六：11：30至1：00、週日：11：30至0：00","address":"台北市內湖區成功路四段30巷30號","title":"觀茶入微","lon":"121.592°","lat":"25.0827°"},{"phone":"","website":"","zone":"港湖","time":"10：00~22：00","address":"台北市內湖路ㄧ段735號","title":"一流眼鏡行","lon":"121.578°","lat":"25.0791°"},{"phone":"","website":"","zone":"港湖","time":"9：00~21：00","address":"南港區舊莊街一段77號","title":"王友信里長競選總部","lon":"121.619°","lat":"25.041°"},{"phone":"","website":"","zone":"港湖","time":"9：00~19：00","address":"台北市內湖區成功路四段199號1樓","title":"李建昌市議員競選總部","lon":"121.596°","lat":"25.0842°"},{"phone":"","website":"","zone":"港湖","time":"9：00~19：00","address":"台北市內湖區成功路二段187號","title":"江志銘市議員競選總部","lon":"121.591°","lat":"25.0667°"},{"phone":"","website":"","zone":"港湖","time":"9：00~19：00","address":"台北市金龍路196號","title":"王孝維市議員競選總部","lon":"121.588°","lat":"25.0873°"},{"phone":"","website":"","zone":"港湖","time":"週一~周59：00~19：00","address":"台北市民權東路6段423號","title":"高嘉瑜市議員競選總部","lon":"121.604°","lat":"25.0721°"},{"phone":"","website":"","zone":"港湖","time":"","address":"台北市南港區成福里東新街91號1100~1800","title":"廖惠里長競選總部","lon":"121.589°","lat":"25.0467°"},{"phone":"","website":"","zone":"港湖","time":"週一~週五18：30~21：20週六12：00~17：00","address":"台北市南港區富康街1巷16弄10號","title":"哈打奶奶","lon":"121.618°","lat":"25.0539°"},{"phone":"","website":"https：\/\/www.facebook.com\/guesswhatcafe","zone":"板橋","time":"週一–週日：10：00–22：30","address":"新北市板橋區民生路二段234巷11號","title":"猜咖啡GuessWhat","lon":"121.469°","lat":"25.0229°"},{"phone":"","website":"https：\/\/www.facebook.com\/mu2coffee","zone":"板橋","time":"週一至週四：09：00至20：00，週六至週日：12：00至21：00","address":"新北市板橋區三民路二段62號","title":"木木商號","lon":"121.479°","lat":"25.0174°"},{"phone":"","website":"https：\/\/www.facebook.com\/pages\/8鍋莒光店\/142786882564288","zone":"板橋","time":"週一至週日：10：00至23：00","address":"新北市板橋區莒光路40巷5號","title":"8鍋(莒光店)","lon":"121.47°","lat":"25.0241°"},{"phone":"","website":"https：\/\/www.facebook.com\/pages\/Tiere-堤?-寵物住宿-人文咖啡\/235856379923837","zone":"板橋","time":"週二至週日：11：00至21：00","address":"新北市板橋區文聖街207號","title":"Tiere堤?寵物住宿\/人文咖啡","lon":"121.48°","lat":"25.0266°"},{"phone":"","website":"https：\/\/www.facebook.com\/littlesparrow48","zone":"板橋","time":"週三至週日：13：00至19：00","address":"新北市板橋區文化路二段125巷48號","title":"小麻雀二手買與賣LittleSparrow","lon":"121.47°","lat":"25.0274°"},{"phone":"","website":"https：\/\/www.facebook.com\/homeyscafe","zone":"不分區","time":"週一至週日：12：00至00：00","address":"臺北市大安區敦化南路一段236巷36號2樓","title":"Homey’sCafe","lon":"121.547°","lat":"25.0405°"},{"phone":"","website":"https：\/\/www.facebook.com\/libratory.books","zone":"不分區","time":"週一至週日：14：00至22：00","address":"臺北市大安區泰順街24號B1","title":"公共冊所","lon":"121.531°","lat":"25.0251°"},{"phone":"","website":"https：\/\/www.facebook.com\/cafesugarman","zone":"不分區","time":"週一至週日：14：00~04：00","address":"臺北市大安區和平東路一段87-1號","title":"SugarManCafe","lon":"121.526°","lat":"25.0272°"},{"phone":"","website":"https：\/\/www.facebook.com\/cafebackstage332","zone":"不分區","time":"週一至週五：11：00至22：00，週六、週日：09：00至22：00","address":"臺北市大安區復興南路二段332號","title":"後門咖啡","lon":"121.543°","lat":"25.0229°"},{"phone":"","website":"https：\/\/www.facebook.com\/mucho2cafe","zone":"不分區","time":"週一至週日：11：00至00：00","address":"臺北市大安區復興南路一段107巷5弄29號","title":"MuchoMucho","lon":"121.546°","lat":"25.0443°"},{"phone":"","website":"https：\/\/www.facebook.com\/caffepeloso","zone":"板橋","time":"週一至週日：12：00至21：00","address":"臺北市萬華區中華路二段75巷40號","title":"沛洛瑟自家焙煎咖啡店","lon":"121.508°","lat":"25.0334°"},{"phone":"","website":"https：\/\/www.facebook.com\/pages\/卡市達創業加油站\/372467782832468","zone":"板橋","time":"週一至週日：10：00至19：00","address":"臺北市萬華區武昌街二段122-1號","title":"卡市達創業加油站1店","lon":"121.504°","lat":"25.0453°"},{"phone":"","website":"https：\/\/www.facebook.com\/QiaoPiChoPi","zone":"板橋","time":"週二至週日：12：00至19：00","address":"臺北市大同區民樂街20號2樓","title":"俏皮CHO-pi","lon":"121.511°","lat":"25.0561°"},{"phone":"","website":"https：\/\/www.facebook.com\/timeless2012","zone":"板橋","time":"週二至週日：15：00至21：00","address":"臺北市中山區中山北路二段20巷25號2樓","title":"暱時光","lon":"121.521°","lat":"25.0536°"},{"phone":"","website":"https：\/\/www.facebook.com\/Ponpie0228","zone":"板橋","time":"週一至週六：12：00至20：00","address":"新北市板橋區民權路202巷2弄1號","title":"Ponpie","lon":"121.459°","lat":"25.0141°"},{"phone":"","website":"https：\/\/www.facebook.com\/CafeMacho","zone":"不分區","time":"週一至週日：12：00至2：00","address":"臺北市中正區晉江街十號","title":"早秋咖啡CAFEMacho","lon":"121.521°","lat":"25.0261°"},{"phone":"","website":"https：\/\/www.facebook.com\/pages\/Mellow-Coffee","zone":"板橋","time":"週一13：00至23：00週三至週日13：00至23：00週二公休","address":"新北市板橋區莒光路158號","title":"mellowcoffee","lon":"121.474°","lat":"25.024°"},{"phone":"","website":"http：\/\/goo.gl\/6jsT6F","zone":"板橋","time":"星期一至星期五：1700~2300","address":"新北市板橋區四維路259巷1號一樓","title":"海柔屋","lon":"121.463°","lat":"25.0279°"},{"phone":"","website":"","zone":"板橋","time":"週一至週五13：00至21：00周六日13：00至19：00","address":"新北市板橋區文化路一段421巷11弄15號","title":"彩虹咖啡","lon":"121.467°","lat":"25.0224°"},{"phone":"","website":"","zone":"板橋","time":"星期一~星期日：8：30am至8：30pm","address":"新北市板橋區大明街20巷19弄7號","title":"新豐糧米油雜貨行","lon":"121.458°","lat":"25.0031°"},{"phone":"","website":"https：\/\/www.facebook.com\/hoochuu\/","zone":"板橋","time":"週一至週日：8：00至16：00","address":"新北市板橋區文化路二段125巷70號","title":"好初早餐一店(只限公布官網和粉絲團)","lon":"121.47°","lat":"25.0279°"},{"phone":"","website":"https：\/\/www.facebook.com\/hoochuu\/","zone":"板橋","time":"週一至週日：8：00至16：00","address":"新北市板橋區建國街118號","title":"好初早餐二店(只限公布官網和粉絲團)","lon":"121.461°","lat":"25.0176°"},{"phone":"","website":"goo.gl\/XHQ3uf","zone":"不分區","time":"星期一至星期五：8：30am至7：00pm、星期六、日(例假日)：8：30am至8：30pm","address":"台北市浦城街24-1號","title":"浦城街代收咖啡店","lon":"121.527°","lat":"25.0231°"},{"phone":"","website":"https：\/\/www.facebook.com\/huncoworkingspace","zone":"不分區","time":"週一至週日：13：00~23：00","address":"台北市和平東路一段104巷6號","title":"混_hun","lon":"121.525°","lat":"25.0265°"},{"phone":"","website":"http：\/\/kafkabythe.blogspot.tw\/","zone":"不分區","time":"週日至週四：12：00至0：00、週五至週六：12：00至2：00","address":"台北市中正區羅斯福路三段244巷2號2樓（捷運台電大樓／公館站，位於˙台電大樓旁）","title":"【海邊的卡夫卡_藝文咖啡館】","lon":"121.531°","lat":"25.017°"},{"phone":"","website":"http：\/\/www.changeeinfo.com\/","zone":"不分區","time":"週二至週日12：00至20：00(週一公休)","address":"臺北市八德路三段106巷55號(捷運國父紀念館站1號出口步行約5分鐘)","title":"Changee延吉小屋","lon":"121.554°","lat":"25.0454°"},{"phone":"","website":"darkcornercafe.com","zone":"不分區","time":"平日15：00至04：00週末14：00至04：00","address":"新店廈門街1號","title":"暗角咖啡","lon":"121.518°","lat":"25.0272°"},{"phone":"","website":"https：\/\/www.facebook.com\/theisland33","zone":"不分區","time":"周一至週日：12：00至21：30","address":"台北市中山北路一段33巷1號","title":"二條通.綠島小夜曲","lon":"121.522°","lat":"25.0488°"},{"phone":"","website":"https：\/\/www.facebook.com\/ArenaRay18?fref=ts","zone":"不分區","time":"週一公休，週二到週日12：00_20：00","address":"台北市松山區南京東路4段二號（台北小巨蛋內，一樓服務處對面）","title":"Ray18","lon":"121.58°","lat":"25.076°"},{"phone":"","website":"https：\/\/www.facebook.com\/T.bian.bian","zone":"不分區","time":"週一到週日12：00_23：00","address":"台北市中正區臨沂街55-3號","title":"邊邊","lon":"121.529°","lat":"25.038°"},{"phone":"","website":"https：\/\/www.facebook.com\/Ving2013","zone":"不分區","time":"週一至週日：12：00至21：00","address":"新北市新莊區中正路516-42號","title":"V+ing","lon":"121.432°","lat":"25.0322°"}]